{
  "type": "FeatureCollection",
  "features": [
    {
      "type": "Feature",
      "geometry": {
        "type": "Point",
        "coordinates": [
          -94.49873,
          39.122272
        ]
      },
      "properties": {
        "type": "feature",
        "index": 2,
        "address": "7500 NE GARDNER AVE, KANSAS CITY, MO, 64120",
        "coordinates": "-94.49873,39.122272"
      }
    },
    {
      "type": "Feature",
      "geometry": {
        "type": "Point",
        "coordinates": [
          -94.60925,
          39.076675
        ]
      },
      "properties": {
        "type": "feature",
        "index": 3,
        "address": "10 EAST CAMBRIDGE CIR DR, KANSAS CITY, KS, 66103",
        "coordinates": "-94.60925,39.076675"
      }
    },
    {
      "type": "Feature",
      "geometry": {
        "type": "Point",
        "coordinates": [
          -94.63795,
          38.92756
        ]
      },
      "properties": {
        "type": "feature",
        "index": 4,
        "address": "4501 COLLEGE BLVD, LEAWOOD, KS, 66211",
        "coordinates": "-94.63795,38.92756"
      }
    },
    {
      "type": "Feature",
      "geometry": {
        "type": "Point",
        "coordinates": [
          -94.81696,
          38.842762
        ]
      },
      "properties": {
        "type": "feature",
        "index": 5,
        "address": "19935 W 157TH ST, OLATHE, KS, 66062",
        "coordinates": "-94.81696,38.842762"
      }
    },
    {
      "type": "Feature",
      "geometry": {
        "type": "Point",
        "coordinates": [
          -94.75829,
          38.9135
        ]
      },
      "properties": {
        "type": "feature",
        "index": 6,
        "address": "14830 WEST 117TH ST., OLATHE, KS, 66062",
        "coordinates": "-94.75829,38.9135"
      }
    },
    {
      "type": "Feature",
      "geometry": {
        "type": "Point",
        "coordinates": [
          -94.70528,
          38.975662
        ]
      },
      "properties": {
        "type": "feature",
        "index": 7,
        "address": "10310 WEST 84TH TERRACE, LENEXA, KS, 66214",
        "coordinates": "-94.70528,38.975662"
      }
    },
    {
      "type": "Feature",
      "geometry": {
        "type": "Point",
        "coordinates": [
          -94.78852,
          39.124943
        ]
      },
      "properties": {
        "type": "feature",
        "index": 10,
        "address": "1731 N 90TH ST, KANSAS CITY, KS, 66112",
        "coordinates": "-94.78852,39.124943"
      }
    },
    {
      "type": "Feature",
      "geometry": {
        "type": "Point",
        "coordinates": [
          -94.7158,
          38.97928
        ]
      },
      "properties": {
        "type": "feature",
        "index": 11,
        "address": "8245 NIEMAN ROAD, LENEXA, KS, 66214",
        "coordinates": "-94.7158,38.97928"
      }
    },
    {
      "type": "Feature",
      "geometry": {
        "type": "Point",
        "coordinates": [
          -94.66819,
          39.27484
        ]
      },
      "properties": {
        "type": "feature",
        "index": 12,
        "address": "10024 AMBASSADOR DR., KANSAS CITY, MO, 64153",
        "coordinates": "-94.66819,39.27484"
      }
    },
    {
      "type": "Feature",
      "geometry": {
        "type": "Point",
        "coordinates": [
          -94.70863,
          38.975792
        ]
      },
      "properties": {
        "type": "feature",
        "index": 15,
        "address": "10413 W 84TH TERRACE, LENEXA, KS, 66214",
        "coordinates": "-94.70863,38.975792"
      }
    },
    {
      "type": "Feature",
      "geometry": {
        "type": "Point",
        "coordinates": [
          -94.7638,
          38.921703
        ]
      },
      "properties": {
        "type": "feature",
        "index": 17,
        "address": "15500 WEST 113TH STREET, LENEXA, KS, 66219",
        "coordinates": "-94.7638,38.921703"
      }
    },
    {
      "type": "Feature",
      "geometry": {
        "type": "Point",
        "coordinates": [
          -94.70743,
          38.98232
        ]
      },
      "properties": {
        "type": "feature",
        "index": 20,
        "address": "8135 LENEXA DR., LENEXA, KS, 66214",
        "coordinates": "-94.70743,38.98232"
      }
    },
    {
      "type": "Feature",
      "geometry": {
        "type": "Point",
        "coordinates": [
          -94.80384,
          38.84559
        ]
      },
      "properties": {
        "type": "feature",
        "index": 21,
        "address": "15795 S MAHAFFIE ST., OLATHE, KS, 66062",
        "coordinates": "-94.80384,38.84559"
      }
    },
    {
      "type": "Feature",
      "geometry": {
        "type": "Point",
        "coordinates": [
          -94.766464,
          38.94918
        ]
      },
      "properties": {
        "type": "feature",
        "index": 22,
        "address": "15600 W 99TH ST., LENEXA, KS, 66219",
        "coordinates": "-94.766464,38.94918"
      }
    },
    {
      "type": "Feature",
      "geometry": {
        "type": "Point",
        "coordinates": [
          -94.664635,
          38.940838
        ]
      },
      "properties": {
        "type": "feature",
        "index": 23,
        "address": "10351 BARKLEY ST., OVERLAND PARK, KS, 66212",
        "coordinates": "-94.664635,38.940838"
      }
    },
    {
      "type": "Feature",
      "geometry": {
        "type": "Point",
        "coordinates": [
          -94.75633,
          38.881836
        ]
      },
      "properties": {
        "type": "feature",
        "index": 24,
        "address": "13655 S ALDEN ST., OLATHE, KS, 66062",
        "coordinates": "-94.75633,38.881836"
      }
    },
    {
      "type": "Feature",
      "geometry": {
        "type": "Point",
        "coordinates": [
          -94.760864,
          38.950695
        ]
      },
      "properties": {
        "type": "feature",
        "index": 25,
        "address": "9837 LACKMAN RD., LENEXA, KS, 66219",
        "coordinates": "-94.760864,38.950695"
      }
    },
    {
      "type": "Feature",
      "geometry": {
        "type": "Point",
        "coordinates": [
          -94.378685,
          38.933422
        ]
      },
      "properties": {
        "type": "feature",
        "index": 26,
        "address": "1178 NE DOUGLAS ST., LEES SUMMIT, MO, 64086",
        "coordinates": "-94.378685,38.933422"
      }
    },
    {
      "type": "Feature",
      "geometry": {
        "type": "Point",
        "coordinates": [
          -94.732956,
          38.970306
        ]
      },
      "properties": {
        "type": "feature",
        "index": 27,
        "address": "8735 ROSEHILL RD, LENEXA, KS, 66215",
        "coordinates": "-94.732956,38.970306"
      }
    },
    {
      "type": "Feature",
      "geometry": {
        "type": "Point",
        "coordinates": [
          -94.64832,
          39.24676
        ]
      },
      "properties": {
        "type": "feature",
        "index": 28,
        "address": "5921 NW BARRY RD, KANSAS CITY, MO, 64154",
        "coordinates": "-94.64832,39.24676"
      }
    },
    {
      "type": "Feature",
      "geometry": {
        "type": "Point",
        "coordinates": [
          -94.66569,
          39.267673
        ]
      },
      "properties": {
        "type": "feature",
        "index": 37,
        "address": "9550 NW PRAIRIE VIEW RD, KANSAS CITY, MO, 64153",
        "coordinates": "-94.66569,39.267673"
      }
    },
    {
      "type": "Feature",
      "geometry": {
        "type": "Point",
        "coordinates": [
          -94.81613,
          39.061306
        ]
      },
      "properties": {
        "type": "feature",
        "index": 39,
        "address": "207 S 9TH ST, EDWARDSVILLE, KS, 66111",
        "coordinates": "-94.81613,39.061306"
      }
    },
    {
      "type": "Feature",
      "geometry": {
        "type": "Point",
        "coordinates": [
          -94.6286,
          39.14695
        ]
      },
      "properties": {
        "type": "feature",
        "index": 40,
        "address": "3200 MCCORMICK RD., KANSAS CITY, KS, 66115",
        "coordinates": "-94.6286,39.14695"
      }
    },
    {
      "type": "Feature",
      "geometry": {
        "type": "Point",
        "coordinates": [
          -94.4863,
          39.048836
        ]
      },
      "properties": {
        "type": "feature",
        "index": 41,
        "address": "1 ARROWHEAD DRIVE, KANSAS CITY, MO, 64129",
        "coordinates": "-94.4863,39.048836"
      }
    },
    {
      "type": "Feature",
      "geometry": {
        "type": "Point",
        "coordinates": [
          -94.66469,
          39.015415
        ]
      },
      "properties": {
        "type": "feature",
        "index": 42,
        "address": "6820 SQUIBB RD, MISSION, KS, 66202",
        "coordinates": "-94.66469,39.015415"
      }
    },
    {
      "type": "Feature",
      "geometry": {
        "type": "Point",
        "coordinates": [
          -94.70298,
          38.990173
        ]
      },
      "properties": {
        "type": "feature",
        "index": 44,
        "address": "7700 WEDD ST, OVERLAND PARK, KS, 66204",
        "coordinates": "-94.70298,38.990173"
      }
    },
    {
      "type": "Feature",
      "geometry": {
        "type": "Point",
        "coordinates": [
          -94.71899,
          38.968246
        ]
      },
      "properties": {
        "type": "feature",
        "index": 45,
        "address": "8820 BOND ST., OVERLAND PARK, KS, 66214",
        "coordinates": "-94.71899,38.968246"
      }
    },
    {
      "type": "Feature",
      "geometry": {
        "type": "Point",
        "coordinates": [
          -94.70752,
          38.97781
        ]
      },
      "properties": {
        "type": "feature",
        "index": 46,
        "address": "8343 MELROSE DR, LENEXA, KS, 66214",
        "coordinates": "-94.70752,38.97781"
      }
    },
    {
      "type": "Feature",
      "geometry": {
        "type": "Point",
        "coordinates": [
          -94.53151,
          39.135906
        ]
      },
      "properties": {
        "type": "feature",
        "index": 47,
        "address": "1600 N. JACKSON AVE., KANSAS CITY, MO, 64120",
        "coordinates": "-94.53151,39.135906"
      }
    },
    {
      "type": "Feature",
      "geometry": {
        "type": "Point",
        "coordinates": [
          -94.70756,
          38.97794
        ]
      },
      "properties": {
        "type": "feature",
        "index": 49,
        "address": "8330 MELROSE DRIVE, LENEXA, KS, 66214",
        "coordinates": "-94.70756,38.97794"
      }
    },
    {
      "type": "Feature",
      "geometry": {
        "type": "Point",
        "coordinates": [
          -94.897156,
          38.831543
        ]
      },
      "properties": {
        "type": "feature",
        "index": 50,
        "address": "301 GARDNER DRIVE, NEW CENTURY, KS, 66031",
        "coordinates": "-94.897156,38.831543"
      }
    },
    {
      "type": "Feature",
      "geometry": {
        "type": "Point",
        "coordinates": [
          -94.83441,
          38.836945
        ]
      },
      "properties": {
        "type": "feature",
        "index": 55,
        "address": "16111 SOUTH LONE ELM ROAD, OLATHE, KS, 66062",
        "coordinates": "-94.83441,38.836945"
      }
    },
    {
      "type": "Feature",
      "geometry": {
        "type": "Point",
        "coordinates": [
          -94.890686,
          38.535767
        ]
      },
      "properties": {
        "type": "feature",
        "index": 56,
        "address": "32575 OLD KANSAS CITY RD., PAOLA, KS, 66071",
        "coordinates": "-94.890686,38.535767"
      }
    },
    {
      "type": "Feature",
      "geometry": {
        "type": "Point",
        "coordinates": [
          -94.579735,
          39.066563
        ]
      },
      "properties": {
        "type": "feature",
        "index": 57,
        "address": "3303 GILLHAM RD., KANSAS CITY, MO, 64109",
        "coordinates": "-94.579735,39.066563"
      }
    },
    {
      "type": "Feature",
      "geometry": {
        "type": "Point",
        "coordinates": [
          -94.76088,
          38.951157
        ]
      },
      "properties": {
        "type": "feature",
        "index": 58,
        "address": "9806 LACKMAN RD, LENEXA, KS, 66219",
        "coordinates": "-94.76088,38.951157"
      }
    },
    {
      "type": "Feature",
      "geometry": {
        "type": "Point",
        "coordinates": [
          -94.577286,
          39.141808
        ]
      },
      "properties": {
        "type": "feature",
        "index": 59,
        "address": "1907 SWIFT AVE, NORTH KANSAS CITY, MO, 64116",
        "coordinates": "-94.577286,39.141808"
      }
    },
    {
      "type": "Feature",
      "geometry": {
        "type": "Point",
        "coordinates": [
          -94.82418,
          39.004044
        ]
      },
      "properties": {
        "type": "feature",
        "index": 60,
        "address": "6873 MARTINDALE, SHAWNEE, KS, 66218",
        "coordinates": "-94.82418,39.004044"
      }
    },
    {
      "type": "Feature",
      "geometry": {
        "type": "Point",
        "coordinates": [
          -94.707504,
          38.97693
        ]
      },
      "properties": {
        "type": "feature",
        "index": 61,
        "address": "8406 MELROSE DR., LENEXA, KS, 66214",
        "coordinates": "-94.707504,38.97693"
      }
    },
    {
      "type": "Feature",
      "geometry": {
        "type": "Point",
        "coordinates": [
          -94.71712,
          38.985626
        ]
      },
      "properties": {
        "type": "feature",
        "index": 62,
        "address": "11320 WEST 79TH STREET, LENEXA, KS, 66214",
        "coordinates": "-94.71712,38.985626"
      }
    },
    {
      "type": "Feature",
      "geometry": {
        "type": "Point",
        "coordinates": [
          -94.72831,
          38.9698
        ]
      },
      "properties": {
        "type": "feature",
        "index": 64,
        "address": "8760 MONROVIA ST, LENEXA, KS, 66215",
        "coordinates": "-94.72831,38.9698"
      }
    },
    {
      "type": "Feature",
      "geometry": {
        "type": "Point",
        "coordinates": [
          -94.667946,
          38.9275
        ]
      },
      "properties": {
        "type": "feature",
        "index": 65,
        "address": "7101 COLLEGE BLVD, OVERLAND PARK, KS, 66210",
        "coordinates": "-94.667946,38.9275"
      }
    },
    {
      "type": "Feature",
      "geometry": {
        "type": "Point",
        "coordinates": [
          -94.79738,
          38.920612
        ]
      },
      "properties": {
        "type": "feature",
        "index": 66,
        "address": "11485 RIDGEVIEW RD, OLATHE, KS, 66061",
        "coordinates": "-94.79738,38.920612"
      }
    },
    {
      "type": "Feature",
      "geometry": {
        "type": "Point",
        "coordinates": [
          -94.81597,
          38.874886
        ]
      },
      "properties": {
        "type": "feature",
        "index": 67,
        "address": "520 SOUTH HARRISON, OLATHE, KS, 66061",
        "coordinates": "-94.81597,38.874886"
      }
    },
    {
      "type": "Feature",
      "geometry": {
        "type": "Point",
        "coordinates": [
          -94.397545,
          38.872288
        ]
      },
      "properties": {
        "type": "feature",
        "index": 68,
        "address": "2600 SW WARD RD, LEES SUMMIT, MO, 64082",
        "coordinates": "-94.397545,38.872288"
      }
    },
    {
      "type": "Feature",
      "geometry": {
        "type": "Point",
        "coordinates": [
          -94.948494,
          39.31026
        ]
      },
      "properties": {
        "type": "feature",
        "index": 69,
        "address": "1901 SPRUCE ST, LEAVENWORTH, KS, 66048",
        "coordinates": "-94.948494,39.31026"
      }
    },
    {
      "type": "Feature",
      "geometry": {
        "type": "Point",
        "coordinates": [
          -94.5871,
          39.03927
        ]
      },
      "properties": {
        "type": "feature",
        "index": 70,
        "address": "4800 MAIN ST, KANSAS CITY, MO, 64112",
        "coordinates": "-94.5871,39.03927"
      }
    },
    {
      "type": "Feature",
      "geometry": {
        "type": "Point",
        "coordinates": [
          -94.66545,
          38.934235
        ]
      },
      "properties": {
        "type": "feature",
        "index": 71,
        "address": "6801 W 107TH ST., OVERLAND PARK, KS, 66212",
        "coordinates": "-94.66545,38.934235"
      }
    },
    {
      "type": "Feature",
      "geometry": {
        "type": "Point",
        "coordinates": [
          -94.46784,
          39.013466
        ]
      },
      "properties": {
        "type": "feature",
        "index": 72,
        "address": "6003 ARLINGTON AVE, RAYTOWN, MO, 64133",
        "coordinates": "-94.46784,39.013466"
      }
    },
    {
      "type": "Feature",
      "geometry": {
        "type": "Point",
        "coordinates": [
          -94.46858,
          39.024765
        ]
      },
      "properties": {
        "type": "feature",
        "index": 75,
        "address": "5401A RAYTOWN RD, RAYTOWN, MO, 64133",
        "coordinates": "-94.46858,39.024765"
      }
    },
    {
      "type": "Feature",
      "geometry": {
        "type": "Point",
        "coordinates": [
          -94.71912,
          38.98561
        ]
      },
      "properties": {
        "type": "feature",
        "index": 76,
        "address": "11505 WEST 79TH ST, LENEXA, KS, 66214",
        "coordinates": "-94.71912,38.98561"
      }
    },
    {
      "type": "Feature",
      "geometry": {
        "type": "Point",
        "coordinates": [
          -94.30294,
          39.0212
        ]
      },
      "properties": {
        "type": "feature",
        "index": 82,
        "address": "3417 NW MILL DR., BLUE SPRINGS, MO, 64015",
        "coordinates": "-94.30294,39.0212"
      }
    },
    {
      "type": "Feature",
      "geometry": {
        "type": "Point",
        "coordinates": [
          -94.5864,
          38.88412
        ]
      },
      "properties": {
        "type": "feature",
        "index": 83,
        "address": "13401 HOLMES RD, KANSAS CITY, MO, 64145",
        "coordinates": "-94.5864,38.88412"
      }
    },
    {
      "type": "Feature",
      "geometry": {
        "type": "Point",
        "coordinates": [
          -94.61076,
          39.14799
        ]
      },
      "properties": {
        "type": "feature",
        "index": 84,
        "address": "2955 FAIRFAX TRAFFICWAY, KANSAS CITY, KS, 66115",
        "coordinates": "-94.61076,39.14799"
      }
    },
    {
      "type": "Feature",
      "geometry": {
        "type": "Point",
        "coordinates": [
          -94.7075,
          38.977398
        ]
      },
      "properties": {
        "type": "feature",
        "index": 86,
        "address": "8381 MELROSE DR, OVERLAND PARK, KS, 66214",
        "coordinates": "-94.7075,38.977398"
      }
    },
    {
      "type": "Feature",
      "geometry": {
        "type": "Point",
        "coordinates": [
          -94.63794,
          38.934826
        ]
      },
      "properties": {
        "type": "feature",
        "index": 88,
        "address": "4551 W 107TH ST., OVERLAND PARK, KS, 66207",
        "coordinates": "-94.63794,38.934826"
      }
    },
    {
      "type": "Feature",
      "geometry": {
        "type": "Point",
        "coordinates": [
          -94.58016,
          39.091236
        ]
      },
      "properties": {
        "type": "feature",
        "index": 89,
        "address": "1829 MCGEE ST., KANSAS CITY, MO, 64108",
        "coordinates": "-94.58016,39.091236"
      }
    },
    {
      "type": "Feature",
      "geometry": {
        "type": "Point",
        "coordinates": [
          -94.6678,
          38.892536
        ]
      },
      "properties": {
        "type": "feature",
        "index": 90,
        "address": "12920 METCALF AVE, OVERLAND PARK, KS, 66213",
        "coordinates": "-94.6678,38.892536"
      }
    },
    {
      "type": "Feature",
      "geometry": {
        "type": "Point",
        "coordinates": [
          -94.6678,
          38.89479
        ]
      },
      "properties": {
        "type": "feature",
        "index": 91,
        "address": "12850 METCALF AVE, OVERLAND PARK, KS, 66213",
        "coordinates": "-94.6678,38.89479"
      }
    },
    {
      "type": "Feature",
      "geometry": {
        "type": "Point",
        "coordinates": [
          -94.35913,
          39.031116
        ]
      },
      "properties": {
        "type": "feature",
        "index": 92,
        "address": "4820 SOUTH ARROWHEAD DR, INDEPENDENCE, MO, 64055",
        "coordinates": "-94.35913,39.031116"
      }
    },
    {
      "type": "Feature",
      "geometry": {
        "type": "Point",
        "coordinates": [
          -94.65005,
          39.248447
        ]
      },
      "properties": {
        "type": "feature",
        "index": 93,
        "address": "8548 N AMBASSADOR DR, KANSAS CITY, MO, 64154",
        "coordinates": "-94.65005,39.248447"
      }
    },
    {
      "type": "Feature",
      "geometry": {
        "type": "Point",
        "coordinates": [
          -94.6678,
          38.893967
        ]
      },
      "properties": {
        "type": "feature",
        "index": 94,
        "address": "12870 METCALF AVE, OVERLAND PARK, KS, 66213",
        "coordinates": "-94.6678,38.893967"
      }
    },
    {
      "type": "Feature",
      "geometry": {
        "type": "Point",
        "coordinates": [
          -94.6678,
          38.893616
        ]
      },
      "properties": {
        "type": "feature",
        "index": 95,
        "address": "12880 METCALF AVE, OVERLAND PARK, KS, 66213",
        "coordinates": "-94.6678,38.893616"
      }
    },
    {
      "type": "Feature",
      "geometry": {
        "type": "Point",
        "coordinates": [
          -94.75523,
          38.93471
        ]
      },
      "properties": {
        "type": "feature",
        "index": 97,
        "address": "14600 W 107TH ST., LENEXA, KS, 66215",
        "coordinates": "-94.75523,38.93471"
      }
    },
    {
      "type": "Feature",
      "geometry": {
        "type": "Point",
        "coordinates": [
          -94.492226,
          39.163597
        ]
      },
      "properties": {
        "type": "feature",
        "index": 98,
        "address": "7800 NE 38TH ST., KANSAS CITY, MO, 64161",
        "coordinates": "-94.492226,39.163597"
      }
    },
    {
      "type": "Feature",
      "geometry": {
        "type": "Point",
        "coordinates": [
          -94.613,
          39.108513
        ]
      },
      "properties": {
        "type": "feature",
        "index": 99,
        "address": "11 N JAMES ST., KANSAS CITY, KS, 66118",
        "coordinates": "-94.613,39.108513"
      }
    },
    {
      "type": "Feature",
      "geometry": {
        "type": "Point",
        "coordinates": [
          -94.70289,
          39.054928
        ]
      },
      "properties": {
        "type": "feature",
        "index": 102,
        "address": "5340 OAK GROVE RD., KANSAS CITY, KS, 66106",
        "coordinates": "-94.70289,39.054928"
      }
    },
    {
      "type": "Feature",
      "geometry": {
        "type": "Point",
        "coordinates": [
          -94.70528,
          39.069256
        ]
      },
      "properties": {
        "type": "feature",
        "index": 103,
        "address": "1800 S 55TH STREET, KANSAS CITY, KS, 66106",
        "coordinates": "-94.70528,39.069256"
      }
    },
    {
      "type": "Feature",
      "geometry": {
        "type": "Point",
        "coordinates": [
          -94.81792,
          38.867054
        ]
      },
      "properties": {
        "type": "feature",
        "index": 104,
        "address": "205 E FLAMING RD., OLATHE, KS, 66061",
        "coordinates": "-94.81792,38.867054"
      }
    },
    {
      "type": "Feature",
      "geometry": {
        "type": "Point",
        "coordinates": [
          -94.50358,
          39.03264
        ]
      },
      "properties": {
        "type": "feature",
        "index": 106,
        "address": "4901 BRISTOL AVE., KANSAS CITY, MO, 64129",
        "coordinates": "-94.50358,39.03264"
      }
    },
    {
      "type": "Feature",
      "geometry": {
        "type": "Point",
        "coordinates": [
          -94.861145,
          38.98077
        ]
      },
      "properties": {
        "type": "feature",
        "index": 108,
        "address": "23770 W 81ST TERRACE, SHAWNEE, KS, 66227",
        "coordinates": "-94.861145,38.98077"
      }
    },
    {
      "type": "Feature",
      "geometry": {
        "type": "Point",
        "coordinates": [
          -94.64299,
          39.13058
        ]
      },
      "properties": {
        "type": "feature",
        "index": 109,
        "address": "2105 N 13TH ST, KANSAS CITY, KS, 66104",
        "coordinates": "-94.64299,39.13058"
      }
    },
    {
      "type": "Feature",
      "geometry": {
        "type": "Point",
        "coordinates": [
          -94.57388,
          39.135086
        ]
      },
      "properties": {
        "type": "feature",
        "index": 110,
        "address": "1404 GENTRY STREET, KANSAS CITY, MO, 64116",
        "coordinates": "-94.57388,39.135086"
      }
    },
    {
      "type": "Feature",
      "geometry": {
        "type": "Point",
        "coordinates": [
          -94.71588,
          38.963223
        ]
      },
      "properties": {
        "type": "feature",
        "index": 111,
        "address": "9120 BARTON STREET, OVERLAND PARK, KS, 66214",
        "coordinates": "-94.71588,38.963223"
      }
    },
    {
      "type": "Feature",
      "geometry": {
        "type": "Point",
        "coordinates": [
          -94.663956,
          38.93745
        ]
      },
      "properties": {
        "type": "feature",
        "index": 112,
        "address": "10561 BARKLEY, OVERLAND PARK, KS, 66212",
        "coordinates": "-94.663956,38.93745"
      }
    },
    {
      "type": "Feature",
      "geometry": {
        "type": "Point",
        "coordinates": [
          -94.7826,
          38.917984
        ]
      },
      "properties": {
        "type": "feature",
        "index": 113,
        "address": "16910 W 116TH STREET, LENEXA, KS, 66219",
        "coordinates": "-94.7826,38.917984"
      }
    },
    {
      "type": "Feature",
      "geometry": {
        "type": "Point",
        "coordinates": [
          -94.38879,
          39.065742
        ]
      },
      "properties": {
        "type": "feature",
        "index": 114,
        "address": "16301 E 29TH STREET S, INDEPENDENCE, MO, 64055",
        "coordinates": "-94.38879,39.065742"
      }
    },
    {
      "type": "Feature",
      "geometry": {
        "type": "Point",
        "coordinates": [
          -94.542885,
          39.127693
        ]
      },
      "properties": {
        "type": "feature",
        "index": 117,
        "address": "3211 GARDNER AVE., KANSAS CITY, MO, 64120",
        "coordinates": "-94.542885,39.127693"
      }
    },
    {
      "type": "Feature",
      "geometry": {
        "type": "Point",
        "coordinates": [
          -94.36813,
          38.96151
        ]
      },
      "properties": {
        "type": "feature",
        "index": 118,
        "address": "2655 NE HAGAN RD., LEES SUMMIT, MO, 64064",
        "coordinates": "-94.36813,38.96151"
      }
    },
    {
      "type": "Feature",
      "geometry": {
        "type": "Point",
        "coordinates": [
          -94.64784,
          39.021576
        ]
      },
      "properties": {
        "type": "feature",
        "index": 119,
        "address": "5400 MARTWAY ST., MISSION, KS, 66205",
        "coordinates": "-94.64784,39.021576"
      }
    },
    {
      "type": "Feature",
      "geometry": {
        "type": "Point",
        "coordinates": [
          -94.582146,
          39.136932
        ]
      },
      "properties": {
        "type": "feature",
        "index": 120,
        "address": "1500 ATLANTIC, NORTH KANSAS CITY, MO, 64116",
        "coordinates": "-94.582146,39.136932"
      }
    },
    {
      "type": "Feature",
      "geometry": {
        "type": "Point",
        "coordinates": [
          -94.7758,
          38.92962
        ]
      },
      "properties": {
        "type": "feature",
        "index": 121,
        "address": "10960 EICHER DR., LENEXA, KS, 66219",
        "coordinates": "-94.7758,38.92962"
      }
    },
    {
      "type": "Feature",
      "geometry": {
        "type": "Point",
        "coordinates": [
          -94.819336,
          38.752995
        ]
      },
      "properties": {
        "type": "feature",
        "index": 122,
        "address": "20300 W 207TH STREET, SPRING HILL, KS, 66083",
        "coordinates": "-94.819336,38.752995"
      }
    },
    {
      "type": "Feature",
      "geometry": {
        "type": "Point",
        "coordinates": [
          -94.576416,
          38.955273
        ]
      },
      "properties": {
        "type": "feature",
        "index": 123,
        "address": "1107 E BANNISTER RD., KANSAS CITY, MO, 64131",
        "coordinates": "-94.576416,38.955273"
      }
    },
    {
      "type": "Feature",
      "geometry": {
        "type": "Point",
        "coordinates": [
          -94.34811,
          38.99032
        ]
      },
      "properties": {
        "type": "feature",
        "index": 124,
        "address": "1271 NE DELTA SCHOOL RD., LEES SUMMIT, MO, 64064",
        "coordinates": "-94.34811,38.99032"
      }
    },
    {
      "type": "Feature",
      "geometry": {
        "type": "Point",
        "coordinates": [
          -94.61611,
          39.146618
        ]
      },
      "properties": {
        "type": "feature",
        "index": 128,
        "address": "104 SUNSHINE ROAD, KANSAS CITY, KS, 66115",
        "coordinates": "-94.61611,39.146618"
      }
    },
    {
      "type": "Feature",
      "geometry": {
        "type": "Point",
        "coordinates": [
          -94.59818,
          38.88236
        ]
      },
      "properties": {
        "type": "feature",
        "index": 129,
        "address": "13520 WYANDOTTE, KANSAS CITY, MO, 64145",
        "coordinates": "-94.59818,38.88236"
      }
    },
    {
      "type": "Feature",
      "geometry": {
        "type": "Point",
        "coordinates": [
          -94.510956,
          39.135006
        ]
      },
      "properties": {
        "type": "feature",
        "index": 131,
        "address": "6024 PARRETTA DR, KANSAS CITY, MO, 64120",
        "coordinates": "-94.510956,39.135006"
      }
    },
    {
      "type": "Feature",
      "geometry": {
        "type": "Point",
        "coordinates": [
          -94.839966,
          38.86715
        ]
      },
      "properties": {
        "type": "feature",
        "index": 132,
        "address": "1351 W HIGHWAY 56, OLATHE, KS, 66061",
        "coordinates": "-94.839966,38.86715"
      }
    },
    {
      "type": "Feature",
      "geometry": {
        "type": "Point",
        "coordinates": [
          -94.66372,
          38.93315
        ]
      },
      "properties": {
        "type": "feature",
        "index": 133,
        "address": "10777 BARKLEY ST., OVERLAND PARK, KS, 66211",
        "coordinates": "-94.66372,38.93315"
      }
    },
    {
      "type": "Feature",
      "geometry": {
        "type": "Point",
        "coordinates": [
          -94.736496,
          39.086094
        ]
      },
      "properties": {
        "type": "feature",
        "index": 134,
        "address": "6721 GRIFFIN RD., KANSAS CITY, KS, 66111",
        "coordinates": "-94.736496,39.086094"
      }
    },
    {
      "type": "Feature",
      "geometry": {
        "type": "Point",
        "coordinates": [
          -94.60185,
          39.104286
        ]
      },
      "properties": {
        "type": "feature",
        "index": 135,
        "address": "1428 W 9TH STREET, KANSAS CITY, MO, 64101",
        "coordinates": "-94.60185,39.104286"
      }
    },
    {
      "type": "Feature",
      "geometry": {
        "type": "Point",
        "coordinates": [
          -94.70615,
          38.983654
        ]
      },
      "properties": {
        "type": "feature",
        "index": 136,
        "address": "8035 LENEXA DR., LENEXA, KS, 66214",
        "coordinates": "-94.70615,38.983654"
      }
    },
    {
      "type": "Feature",
      "geometry": {
        "type": "Point",
        "coordinates": [
          -94.58315,
          39.079453
        ]
      },
      "properties": {
        "type": "feature",
        "index": 137,
        "address": "2600 GRAND BLVD.;STE 1200, KANSAS CITY, MO, 64108",
        "coordinates": "-94.58315,39.079453"
      }
    },
    {
      "type": "Feature",
      "geometry": {
        "type": "Point",
        "coordinates": [
          -94.40857,
          39.093987
        ]
      },
      "properties": {
        "type": "feature",
        "index": 139,
        "address": "401 HOCKER TERR., INDEPENDENCE, MO, 64050",
        "coordinates": "-94.40857,39.093987"
      }
    },
    {
      "type": "Feature",
      "geometry": {
        "type": "Point",
        "coordinates": [
          -94.42127,
          39.093094
        ]
      },
      "properties": {
        "type": "feature",
        "index": 142,
        "address": "210 N PLEASANT ST, INDEPENDENCE, MO, 64050",
        "coordinates": "-94.42127,39.093094"
      }
    },
    {
      "type": "Feature",
      "geometry": {
        "type": "Point",
        "coordinates": [
          -94.493416,
          38.965347
        ]
      },
      "properties": {
        "type": "feature",
        "index": 143,
        "address": "8941 JAMES A REED RD, KANSAS CITY, MO, 64138",
        "coordinates": "-94.493416,38.965347"
      }
    },
    {
      "type": "Feature",
      "geometry": {
        "type": "Point",
        "coordinates": [
          -94.47969,
          39.15697
        ]
      },
      "properties": {
        "type": "feature",
        "index": 144,
        "address": "8800 NE UNDERGROUND DR., KANSAS CITY, MO, 64161",
        "coordinates": "-94.47969,39.15697"
      }
    },
    {
      "type": "Feature",
      "geometry": {
        "type": "Point",
        "coordinates": [
          -94.633675,
          38.920235
        ]
      },
      "properties": {
        "type": "feature",
        "index": 145,
        "address": "4200 W 115TH ST., LEAWOOD, KS, 66211",
        "coordinates": "-94.633675,38.920235"
      }
    },
    {
      "type": "Feature",
      "geometry": {
        "type": "Point",
        "coordinates": [
          -94.71659,
          39.116684
        ]
      },
      "properties": {
        "type": "feature",
        "index": 146,
        "address": "5938 STATE AVENUE, KANSAS CITY, KS, 66102",
        "coordinates": "-94.71659,39.116684"
      }
    },
    {
      "type": "Feature",
      "geometry": {
        "type": "Point",
        "coordinates": [
          -94.60212,
          39.076492
        ]
      },
      "properties": {
        "type": "feature",
        "index": 150,
        "address": "2829 SOUTHWEST BLVD., KANSAS CITY, MO, 64108",
        "coordinates": "-94.60212,39.076492"
      }
    },
    {
      "type": "Feature",
      "geometry": {
        "type": "Point",
        "coordinates": [
          -94.64893,
          38.933052
        ]
      },
      "properties": {
        "type": "feature",
        "index": 151,
        "address": "10777 NALL AVE.; STE 100, OVERLAND PARK, KS, 66211",
        "coordinates": "-94.64893,38.933052"
      }
    },
    {
      "type": "Feature",
      "geometry": {
        "type": "Point",
        "coordinates": [
          -94.57856,
          39.12872
        ]
      },
      "properties": {
        "type": "feature",
        "index": 152,
        "address": "203 E 11TH AVE., NORTH KANSAS CITY, MO, 64116",
        "coordinates": "-94.57856,39.12872"
      }
    },
    {
      "type": "Feature",
      "geometry": {
        "type": "Point",
        "coordinates": [
          -94.594315,
          38.90308
        ]
      },
      "properties": {
        "type": "feature",
        "index": 155,
        "address": "12411 WORNALL RD., KANSAS CITY, MO, 64145",
        "coordinates": "-94.594315,38.90308"
      }
    },
    {
      "type": "Feature",
      "geometry": {
        "type": "Point",
        "coordinates": [
          -94.7248,
          38.965492
        ]
      },
      "properties": {
        "type": "feature",
        "index": 156,
        "address": "8960 MARSHALL DR., LENEXA, KS, 66215",
        "coordinates": "-94.7248,38.965492"
      }
    },
    {
      "type": "Feature",
      "geometry": {
        "type": "Point",
        "coordinates": [
          -94.584526,
          39.10087
        ]
      },
      "properties": {
        "type": "feature",
        "index": 157,
        "address": "114 W 11TH STREET, KANSAS CITY, MO, 64105",
        "coordinates": "-94.584526,39.10087"
      }
    },
    {
      "type": "Feature",
      "geometry": {
        "type": "Point",
        "coordinates": [
          -94.58955,
          39.08338
        ]
      },
      "properties": {
        "type": "feature",
        "index": 158,
        "address": "333 WEST PERSHING RD., KANSAS CITY, MO, 64108",
        "coordinates": "-94.58955,39.08338"
      }
    },
    {
      "type": "Feature",
      "geometry": {
        "type": "Point",
        "coordinates": [
          -94.50464,
          39.010815
        ]
      },
      "properties": {
        "type": "feature",
        "index": 159,
        "address": "6301 WINCHESTER AVE., KANSAS CITY, MO, 64133",
        "coordinates": "-94.50464,39.010815"
      }
    },
    {
      "type": "Feature",
      "geometry": {
        "type": "Point",
        "coordinates": [
          -94.77249,
          38.956173
        ]
      },
      "properties": {
        "type": "feature",
        "index": 160,
        "address": "9601 LEGLER RD, LENEXA, KS, 66219",
        "coordinates": "-94.77249,38.956173"
      }
    },
    {
      "type": "Feature",
      "geometry": {
        "type": "Point",
        "coordinates": [
          -94.505226,
          39.135586
        ]
      },
      "properties": {
        "type": "feature",
        "index": 164,
        "address": "6700 CORPORATE DR, KANSAS CITY, MO, 64120",
        "coordinates": "-94.505226,39.135586"
      }
    },
    {
      "type": "Feature",
      "geometry": {
        "type": "Point",
        "coordinates": [
          -94.25627,
          39.0269
        ]
      },
      "properties": {
        "type": "feature",
        "index": 165,
        "address": "491 NE CORONADO DR., BLUE SPRINGS, MO, 64014",
        "coordinates": "-94.25627,39.0269"
      }
    },
    {
      "type": "Feature",
      "geometry": {
        "type": "Point",
        "coordinates": [
          -94.56702,
          39.064766
        ]
      },
      "properties": {
        "type": "feature",
        "index": 168,
        "address": "3400 PASEO BLVD., KANSAS CITY, MO, 64109",
        "coordinates": "-94.56702,39.064766"
      }
    },
    {
      "type": "Feature",
      "geometry": {
        "type": "Point",
        "coordinates": [
          -94.529175,
          39.036324
        ]
      },
      "properties": {
        "type": "feature",
        "index": 169,
        "address": "4900 LISTER AVE., KANSAS CITY, MO, 64130",
        "coordinates": "-94.529175,39.036324"
      }
    },
    {
      "type": "Feature",
      "geometry": {
        "type": "Point",
        "coordinates": [
          -94.54356,
          38.90252
        ]
      },
      "properties": {
        "type": "feature",
        "index": 170,
        "address": "4232 DR. GREAVES RD., GRANDVIEW, MO, 64030",
        "coordinates": "-94.54356,38.90252"
      }
    },
    {
      "type": "Feature",
      "geometry": {
        "type": "Point",
        "coordinates": [
          -94.70753,
          38.977856
        ]
      },
      "properties": {
        "type": "feature",
        "index": 173,
        "address": "8339 MELROSE DR., LENEXA, KS, 66214",
        "coordinates": "-94.70753,38.977856"
      }
    },
    {
      "type": "Feature",
      "geometry": {
        "type": "Point",
        "coordinates": [
          -94.36207,
          38.960876
        ]
      },
      "properties": {
        "type": "feature",
        "index": 174,
        "address": "2704 NE INDEPENDENCE AVE., LEES SUMMIT, MO, 64064",
        "coordinates": "-94.36207,38.960876"
      }
    },
    {
      "type": "Feature",
      "geometry": {
        "type": "Point",
        "coordinates": [
          -94.71445,
          38.963833
        ]
      },
      "properties": {
        "type": "feature",
        "index": 175,
        "address": "11100 W 91ST ST;STE 200, OVERLAND PARK, KS, 66214",
        "coordinates": "-94.71445,38.963833"
      }
    },
    {
      "type": "Feature",
      "geometry": {
        "type": "Point",
        "coordinates": [
          -94.51785,
          39.13587
        ]
      },
      "properties": {
        "type": "feature",
        "index": 177,
        "address": "1601 SOUTHERN ROAD, KANSAS CITY, MO, 64120",
        "coordinates": "-94.51785,39.13587"
      }
    },
    {
      "type": "Feature",
      "geometry": {
        "type": "Point",
        "coordinates": [
          -94.50972,
          39.1371
        ]
      },
      "properties": {
        "type": "feature",
        "index": 178,
        "address": "6200 EQUITABLE ROAD, KANSAS CITY, MO, 64120",
        "coordinates": "-94.50972,39.1371"
      }
    },
    {
      "type": "Feature",
      "geometry": {
        "type": "Point",
        "coordinates": [
          -94.5876,
          39.090096
        ]
      },
      "properties": {
        "type": "feature",
        "index": 181,
        "address": "300 W 19TH TERR, KANSAS CITY, MO, 64108",
        "coordinates": "-94.5876,39.090096"
      }
    },
    {
      "type": "Feature",
      "geometry": {
        "type": "Point",
        "coordinates": [
          -94.557434,
          39.089016
        ]
      },
      "properties": {
        "type": "feature",
        "index": 183,
        "address": "2100 E 19TH TERR., KANSAS CITY, MO, 64127",
        "coordinates": "-94.557434,39.089016"
      }
    },
    {
      "type": "Feature",
      "geometry": {
        "type": "Point",
        "coordinates": [
          -94.74732,
          38.935505
        ]
      },
      "properties": {
        "type": "feature",
        "index": 185,
        "address": "10577 WIDMER ROAD, LENEXA, KS, 66215",
        "coordinates": "-94.74732,38.935505"
      }
    },
    {
      "type": "Feature",
      "geometry": {
        "type": "Point",
        "coordinates": [
          -94.74525,
          38.935257
        ]
      },
      "properties": {
        "type": "feature",
        "index": 186,
        "address": "10621 RENE STREET, LENEXA, KS, 66215",
        "coordinates": "-94.74525,38.935257"
      }
    },
    {
      "type": "Feature",
      "geometry": {
        "type": "Point",
        "coordinates": [
          -94.58815,
          39.069405
        ]
      },
      "properties": {
        "type": "feature",
        "index": 187,
        "address": "3161 WYANDOTTE, KANSAS CITY, MO, 64111",
        "coordinates": "-94.58815,39.069405"
      }
    },
    {
      "type": "Feature",
      "geometry": {
        "type": "Point",
        "coordinates": [
          -94.76373,
          38.93103
        ]
      },
      "properties": {
        "type": "feature",
        "index": 189,
        "address": "15501 WEST 109TH STREET, LENEXA, KS, 66219",
        "coordinates": "-94.76373,38.93103"
      }
    },
    {
      "type": "Feature",
      "geometry": {
        "type": "Point",
        "coordinates": [
          -94.512856,
          39.07208
        ]
      },
      "properties": {
        "type": "feature",
        "index": 190,
        "address": "2922 WHEELING AVE., KANSAS CITY, MO, 64129",
        "coordinates": "-94.512856,39.07208"
      }
    },
    {
      "type": "Feature",
      "geometry": {
        "type": "Point",
        "coordinates": [
          -94.60798,
          38.896297
        ]
      },
      "properties": {
        "type": "feature",
        "index": 191,
        "address": "12730 STATE LINE, LEAWOOD, KS, 66209",
        "coordinates": "-94.60798,38.896297"
      }
    },
    {
      "type": "Feature",
      "geometry": {
        "type": "Point",
        "coordinates": [
          -94.69114,
          39.0167
        ]
      },
      "properties": {
        "type": "feature",
        "index": 193,
        "address": "6145 GRANDVIEW ST, MERRIAM, KS, 66202",
        "coordinates": "-94.69114,39.0167"
      }
    },
    {
      "type": "Feature",
      "geometry": {
        "type": "Point",
        "coordinates": [
          -94.505745,
          39.13153
        ]
      },
      "properties": {
        "type": "feature",
        "index": 195,
        "address": "6455 E COMMERCE AVE, KANSAS CITY, MO, 64120",
        "coordinates": "-94.505745,39.13153"
      }
    },
    {
      "type": "Feature",
      "geometry": {
        "type": "Point",
        "coordinates": [
          -94.56948,
          39.10544
        ]
      },
      "properties": {
        "type": "feature",
        "index": 197,
        "address": "1101 ADMIRAL BLVD., KANSAS CITY, MO, 64106",
        "coordinates": "-94.56948,39.10544"
      }
    },
    {
      "type": "Feature",
      "geometry": {
        "type": "Point",
        "coordinates": [
          -94.83033,
          38.86769
        ]
      },
      "properties": {
        "type": "feature",
        "index": 199,
        "address": "815 E. OLD 56 HIGHWAY, OLATHE, KS, 66061",
        "coordinates": "-94.83033,38.86769"
      }
    },
    {
      "type": "Feature",
      "geometry": {
        "type": "Point",
        "coordinates": [
          -94.68249,
          38.927467
        ]
      },
      "properties": {
        "type": "feature",
        "index": 200,
        "address": "8455 COLLEGE BLVD., OVERLAND PARK, KS, 66210",
        "coordinates": "-94.68249,38.927467"
      }
    },
    {
      "type": "Feature",
      "geometry": {
        "type": "Point",
        "coordinates": [
          -94.68249,
          38.927467
        ]
      },
      "properties": {
        "type": "feature",
        "index": 201,
        "address": "8455 COLLEGE BLVD, OVERLAND PARK, KS, 66210",
        "coordinates": "-94.68249,38.927467"
      }
    },
    {
      "type": "Feature",
      "geometry": {
        "type": "Point",
        "coordinates": [
          -94.4201,
          39.092873
        ]
      },
      "properties": {
        "type": "feature",
        "index": 202,
        "address": "411 WEST MAPLE ST., INDEPENDENCE, MO, 64050",
        "coordinates": "-94.4201,39.092873"
      }
    },
    {
      "type": "Feature",
      "geometry": {
        "type": "Point",
        "coordinates": [
          -94.66387,
          38.854088
        ]
      },
      "properties": {
        "type": "feature",
        "index": 206,
        "address": "15108 GLENWOOD, OVERLAND PARK, KS, 66223",
        "coordinates": "-94.66387,38.854088"
      }
    },
    {
      "type": "Feature",
      "geometry": {
        "type": "Point",
        "coordinates": [
          -94.648964,
          38.92284
        ]
      },
      "properties": {
        "type": "feature",
        "index": 208,
        "address": "11251 NALL AVE., LEAWOOD, KS, 66211",
        "coordinates": "-94.648964,38.92284"
      }
    },
    {
      "type": "Feature",
      "geometry": {
        "type": "Point",
        "coordinates": [
          -94.38077,
          38.93365
        ]
      },
      "properties": {
        "type": "feature",
        "index": 209,
        "address": "40 NE SYCAMORE ST., LEES SUMMIT, MO, 64086",
        "coordinates": "-94.38077,38.93365"
      }
    },
    {
      "type": "Feature",
      "geometry": {
        "type": "Point",
        "coordinates": [
          -94.57628,
          39.258938
        ]
      },
      "properties": {
        "type": "feature",
        "index": 211,
        "address": "206 NE 91ST ST., KANSAS CITY, MO, 64155",
        "coordinates": "-94.57628,39.258938"
      }
    },
    {
      "type": "Feature",
      "geometry": {
        "type": "Point",
        "coordinates": [
          -94.59238,
          39.041256
        ]
      },
      "properties": {
        "type": "feature",
        "index": 212,
        "address": "435 NICHOLS ROAD, KANSAS CITY, MO, 64112",
        "coordinates": "-94.59238,39.041256"
      }
    },
    {
      "type": "Feature",
      "geometry": {
        "type": "Point",
        "coordinates": [
          -94.5433,
          39.242916
        ]
      },
      "properties": {
        "type": "feature",
        "index": 213,
        "address": "3200 NE 83RD ST., KANSAS CITY, MO, 64119",
        "coordinates": "-94.5433,39.242916"
      }
    },
    {
      "type": "Feature",
      "geometry": {
        "type": "Point",
        "coordinates": [
          -94.59854,
          39.042393
        ]
      },
      "properties": {
        "type": "feature",
        "index": 214,
        "address": "4700 BELLEVIEW AVE., KANSAS CITY, MO, 64112",
        "coordinates": "-94.59854,39.042393"
      }
    },
    {
      "type": "Feature",
      "geometry": {
        "type": "Point",
        "coordinates": [
          -94.360695,
          38.933754
        ]
      },
      "properties": {
        "type": "feature",
        "index": 215,
        "address": "1201 NE WINDSOR DR., LEES SUMMIT, MO, 64086",
        "coordinates": "-94.360695,38.933754"
      }
    },
    {
      "type": "Feature",
      "geometry": {
        "type": "Point",
        "coordinates": [
          -94.83515,
          39.129234
        ]
      },
      "properties": {
        "type": "feature",
        "index": 216,
        "address": "2040 HUTTON RD, KANSAS CITY, KS, 66109",
        "coordinates": "-94.83515,39.129234"
      }
    },
    {
      "type": "Feature",
      "geometry": {
        "type": "Point",
        "coordinates": [
          -94.68207,
          38.92748
        ]
      },
      "properties": {
        "type": "feature",
        "index": 217,
        "address": "8300 COLLEGE BLVD, OVERLAND PARK, KS, 66210",
        "coordinates": "-94.68207,38.92748"
      }
    },
    {
      "type": "Feature",
      "geometry": {
        "type": "Point",
        "coordinates": [
          -94.62679,
          39.11288
        ]
      },
      "properties": {
        "type": "feature",
        "index": 220,
        "address": "710 N 7TH ST, KANSAS CITY, KS, 66101",
        "coordinates": "-94.62679,39.11288"
      }
    },
    {
      "type": "Feature",
      "geometry": {
        "type": "Point",
        "coordinates": [
          -94.62448,
          39.11362
        ]
      },
      "properties": {
        "type": "feature",
        "index": 222,
        "address": "619 ANN AVE, KANSAS CITY, KS, 66101",
        "coordinates": "-94.62448,39.11362"
      }
    },
    {
      "type": "Feature",
      "geometry": {
        "type": "Point",
        "coordinates": [
          -94.76996,
          39.116375
        ]
      },
      "properties": {
        "type": "feature",
        "index": 224,
        "address": "8200 STATE ST, KANSAS CITY, KS, 66112",
        "coordinates": "-94.76996,39.116375"
      }
    },
    {
      "type": "Feature",
      "geometry": {
        "type": "Point",
        "coordinates": [
          -94.67102,
          38.927513
        ]
      },
      "properties": {
        "type": "feature",
        "index": 227,
        "address": "7400 COLLEGE BLVD, OVERLAND PARK, KS, 66210",
        "coordinates": "-94.67102,38.927513"
      }
    },
    {
      "type": "Feature",
      "geometry": {
        "type": "Point",
        "coordinates": [
          -94.37206,
          38.93851
        ]
      },
      "properties": {
        "type": "feature",
        "index": 229,
        "address": "1401 NE BUTTONWOOD CT, LEES SUMMIT, MO, 64086",
        "coordinates": "-94.37206,38.93851"
      }
    },
    {
      "type": "Feature",
      "geometry": {
        "type": "Point",
        "coordinates": [
          -94.48419,
          39.161076
        ]
      },
      "properties": {
        "type": "feature",
        "index": 230,
        "address": "3701 NORTH SKILES AVE, KANSAS CITY, MO, 64161",
        "coordinates": "-94.48419,39.161076"
      }
    },
    {
      "type": "Feature",
      "geometry": {
        "type": "Point",
        "coordinates": [
          -94.57333,
          39.055862
        ]
      },
      "properties": {
        "type": "feature",
        "index": 231,
        "address": "3909 HARRISON ST, KANSAS CITY, MO, 64110",
        "coordinates": "-94.57333,39.055862"
      }
    },
    {
      "type": "Feature",
      "geometry": {
        "type": "Point",
        "coordinates": [
          -94.520996,
          39.0465
        ]
      },
      "properties": {
        "type": "feature",
        "index": 238,
        "address": "4320 CLARY BLVD, KANSAS CITY, MO, 64130",
        "coordinates": "-94.520996,39.0465"
      }
    },
    {
      "type": "Feature",
      "geometry": {
        "type": "Point",
        "coordinates": [
          -94.57376,
          39.14289
        ]
      },
      "properties": {
        "type": "feature",
        "index": 241,
        "address": "2018 GENTRY ST, NORTH KANSAS CITY, MO, 64116",
        "coordinates": "-94.57376,39.14289"
      }
    },
    {
      "type": "Feature",
      "geometry": {
        "type": "Point",
        "coordinates": [
          -94.723694,
          38.91461
        ]
      },
      "properties": {
        "type": "feature",
        "index": 243,
        "address": "11810 QUIVIRA RD, OVERLAND PARK, KS, 66210",
        "coordinates": "-94.723694,38.91461"
      }
    },
    {
      "type": "Feature",
      "geometry": {
        "type": "Point",
        "coordinates": [
          -94.77744,
          38.950527
        ]
      },
      "properties": {
        "type": "feature",
        "index": 245,
        "address": "9777 RIDGE DRIVE, LENEXA, KS, 66219",
        "coordinates": "-94.77744,38.950527"
      }
    },
    {
      "type": "Feature",
      "geometry": {
        "type": "Point",
        "coordinates": [
          -94.71478,
          38.980865
        ]
      },
      "properties": {
        "type": "feature",
        "index": 246,
        "address": "8200 NIEMAN RD, OVERLAND PARK, KS, 66214",
        "coordinates": "-94.71478,38.980865"
      }
    },
    {
      "type": "Feature",
      "geometry": {
        "type": "Point",
        "coordinates": [
          -94.55558,
          39.107716
        ]
      },
      "properties": {
        "type": "feature",
        "index": 247,
        "address": "539 BROOKLYN AVE., KANSAS CITY, MO, 64124",
        "coordinates": "-94.55558,39.107716"
      }
    },
    {
      "type": "Feature",
      "geometry": {
        "type": "Point",
        "coordinates": [
          -94.53641,
          38.909447
        ]
      },
      "properties": {
        "type": "feature",
        "index": 248,
        "address": "4800 E 119TH ST, GRANDVIEW, MO, 64030",
        "coordinates": "-94.53641,38.909447"
      }
    },
    {
      "type": "Feature",
      "geometry": {
        "type": "Point",
        "coordinates": [
          -94.7158,
          38.97928
        ]
      },
      "properties": {
        "type": "feature",
        "index": 250,
        "address": "8245 NIEMAN RD, LENEXA, KS, 66214",
        "coordinates": "-94.7158,38.97928"
      }
    },
    {
      "type": "Feature",
      "geometry": {
        "type": "Point",
        "coordinates": [
          -94.58016,
          39.09119
        ]
      },
      "properties": {
        "type": "feature",
        "index": 252,
        "address": "1833 MC GEE, KANSAS CITY, MO, 64108",
        "coordinates": "-94.58016,39.09119"
      }
    },
    {
      "type": "Feature",
      "geometry": {
        "type": "Point",
        "coordinates": [
          -94.584526,
          39.095695
        ]
      },
      "properties": {
        "type": "feature",
        "index": 253,
        "address": "1511 BALTIMORE, KANSAS CITY, MO, 64108",
        "coordinates": "-94.584526,39.095695"
      }
    },
    {
      "type": "Feature",
      "geometry": {
        "type": "Point",
        "coordinates": [
          -94.4874,
          39.002525
        ]
      },
      "properties": {
        "type": "feature",
        "index": 255,
        "address": "6701 BOOTH ST., RAYTOWN, MO, 64133",
        "coordinates": "-94.4874,39.002525"
      }
    },
    {
      "type": "Feature",
      "geometry": {
        "type": "Point",
        "coordinates": [
          -94.566185,
          39.092903
        ]
      },
      "properties": {
        "type": "feature",
        "index": 257,
        "address": "1350 E 17TH ST, KANSAS CITY, MO, 64108",
        "coordinates": "-94.566185,39.092903"
      }
    },
    {
      "type": "Feature",
      "geometry": {
        "type": "Point",
        "coordinates": [
          -94.61584,
          39.086056
        ]
      },
      "properties": {
        "type": "feature",
        "index": 259,
        "address": "87 SHAWNEE AVE, KANSAS CITY, KS, 66105",
        "coordinates": "-94.61584,39.086056"
      }
    },
    {
      "type": "Feature",
      "geometry": {
        "type": "Point",
        "coordinates": [
          -94.716606,
          38.98686
        ]
      },
      "properties": {
        "type": "feature",
        "index": 260,
        "address": "7830 BARTON ST, LENEXA, KS, 66214",
        "coordinates": "-94.716606,38.98686"
      }
    },
    {
      "type": "Feature",
      "geometry": {
        "type": "Point",
        "coordinates": [
          -94.669044,
          38.927517
        ]
      },
      "properties": {
        "type": "feature",
        "index": 263,
        "address": "7200 COLLEGE BLVD, OVERLAND PARK, KS, 66210",
        "coordinates": "-94.669044,38.927517"
      }
    },
    {
      "type": "Feature",
      "geometry": {
        "type": "Point",
        "coordinates": [
          -94.733185,
          38.971012
        ]
      },
      "properties": {
        "type": "feature",
        "index": 268,
        "address": "12701 WEST 87TH ST PKWY, LENEXA, KS, 66215",
        "coordinates": "-94.733185,38.971012"
      }
    },
    {
      "type": "Feature",
      "geometry": {
        "type": "Point",
        "coordinates": [
          -94.76863,
          39.12859
        ]
      },
      "properties": {
        "type": "feature",
        "index": 269,
        "address": "8160 PARALLEL PARKWAY, KANSAS CITY, KS, 66112",
        "coordinates": "-94.76863,39.12859"
      }
    },
    {
      "type": "Feature",
      "geometry": {
        "type": "Point",
        "coordinates": [
          -94.77225,
          38.95181
        ]
      },
      "properties": {
        "type": "feature",
        "index": 270,
        "address": "9801 LEGLER ROAD, LENEXA, KS, 66219",
        "coordinates": "-94.77225,38.95181"
      }
    },
    {
      "type": "Feature",
      "geometry": {
        "type": "Point",
        "coordinates": [
          -94.607765,
          39.013794
        ]
      },
      "properties": {
        "type": "feature",
        "index": 271,
        "address": "6400 STATE LINE ROAD, MISSION HILLS, KS, 66208",
        "coordinates": "-94.607765,39.013794"
      }
    },
    {
      "type": "Feature",
      "geometry": {
        "type": "Point",
        "coordinates": [
          -94.37872,
          38.93302
        ]
      },
      "properties": {
        "type": "feature",
        "index": 273,
        "address": "1150 NE DOUGLAS STREET, LEES SUMMIT, MO, 64086",
        "coordinates": "-94.37872,38.93302"
      }
    },
    {
      "type": "Feature",
      "geometry": {
        "type": "Point",
        "coordinates": [
          -94.71603,
          38.92744
        ]
      },
      "properties": {
        "type": "feature",
        "index": 274,
        "address": "11225 W COLLEGE BLD, OVERLAND PARK, KS, 66210",
        "coordinates": "-94.71603,38.92744"
      }
    },
    {
      "type": "Feature",
      "geometry": {
        "type": "Point",
        "coordinates": [
          -94.58885,
          39.090435
        ]
      },
      "properties": {
        "type": "feature",
        "index": 275,
        "address": "1915 BROADWAY BLVD, KANSAS CITY, MO, 64108",
        "coordinates": "-94.58885,39.090435"
      }
    },
    {
      "type": "Feature",
      "geometry": {
        "type": "Point",
        "coordinates": [
          -94.637794,
          38.928745
        ]
      },
      "properties": {
        "type": "feature",
        "index": 276,
        "address": "11030 GRANADA LANE, OVERLAND PARK, KS, 66211",
        "coordinates": "-94.637794,38.928745"
      }
    },
    {
      "type": "Feature",
      "geometry": {
        "type": "Point",
        "coordinates": [
          -94.63819,
          38.918945
        ]
      },
      "properties": {
        "type": "feature",
        "index": 277,
        "address": "11601 GRANADA LANE, LEAWOOD, KS, 66211",
        "coordinates": "-94.63819,38.918945"
      }
    },
    {
      "type": "Feature",
      "geometry": {
        "type": "Point",
        "coordinates": [
          -94.605705,
          39.0709
        ]
      },
      "properties": {
        "type": "feature",
        "index": 278,
        "address": "3125 ROANOKE RD, KANSAS CITY, MO, 64111",
        "coordinates": "-94.605705,39.0709"
      }
    },
    {
      "type": "Feature",
      "geometry": {
        "type": "Point",
        "coordinates": [
          -94.54796,
          39.1868
        ]
      },
      "properties": {
        "type": "feature",
        "index": 279,
        "address": "2631 NE VIVION RD, KANSAS CITY, MO, 64119",
        "coordinates": "-94.54796,39.1868"
      }
    },
    {
      "type": "Feature",
      "geometry": {
        "type": "Point",
        "coordinates": [
          -94.721306,
          38.963463
        ]
      },
      "properties": {
        "type": "feature",
        "index": 283,
        "address": "9104 CODY ST, OVERLAND PARK, KS, 66214",
        "coordinates": "-94.721306,38.963463"
      }
    },
    {
      "type": "Feature",
      "geometry": {
        "type": "Point",
        "coordinates": [
          -94.7248,
          38.965492
        ]
      },
      "properties": {
        "type": "feature",
        "index": 286,
        "address": "8960 MARSHALL DR, LENEXA, KS, 66215",
        "coordinates": "-94.7248,38.965492"
      }
    },
    {
      "type": "Feature",
      "geometry": {
        "type": "Point",
        "coordinates": [
          -94.36378,
          38.901848
        ]
      },
      "properties": {
        "type": "feature",
        "index": 290,
        "address": "975 SE OLDHAM PKWY, LEES SUMMIT, MO, 64081",
        "coordinates": "-94.36378,38.901848"
      }
    },
    {
      "type": "Feature",
      "geometry": {
        "type": "Point",
        "coordinates": [
          -94.57892,
          39.11007
        ]
      },
      "properties": {
        "type": "feature",
        "index": 291,
        "address": "450 EAST 4TH STREET, KANSAS CITY, MO, 64106",
        "coordinates": "-94.57892,39.11007"
      }
    },
    {
      "type": "Feature",
      "geometry": {
        "type": "Point",
        "coordinates": [
          -94.588165,
          39.106564
        ]
      },
      "properties": {
        "type": "feature",
        "index": 295,
        "address": "600 BROADWAY, KANSAS CITY, MO, 64105",
        "coordinates": "-94.588165,39.106564"
      }
    },
    {
      "type": "Feature",
      "geometry": {
        "type": "Point",
        "coordinates": [
          -94.5789,
          39.11007
        ]
      },
      "properties": {
        "type": "feature",
        "index": 296,
        "address": "450 E. 4TH STREET, KANSAS CITY, MO, 64106",
        "coordinates": "-94.5789,39.11007"
      }
    },
    {
      "type": "Feature",
      "geometry": {
        "type": "Point",
        "coordinates": [
          -94.55189,
          39.12439
        ]
      },
      "properties": {
        "type": "feature",
        "index": 299,
        "address": "2405 NICHOLSON AVE, KANSAS CITY, MO, 64120",
        "coordinates": "-94.55189,39.12439"
      }
    },
    {
      "type": "Feature",
      "geometry": {
        "type": "Point",
        "coordinates": [
          -94.58382,
          38.95561
        ]
      },
      "properties": {
        "type": "feature",
        "index": 300,
        "address": "420 BANNISTER ROAD, KANSAS CITY, MO, 64131",
        "coordinates": "-94.58382,38.95561"
      }
    },
    {
      "type": "Feature",
      "geometry": {
        "type": "Point",
        "coordinates": [
          -94.54754,
          38.884884
        ]
      },
      "properties": {
        "type": "feature",
        "index": 301,
        "address": "13211 ARRINGTON ROAD, GRANDVIEW, MO, 64030",
        "coordinates": "-94.54754,38.884884"
      }
    },
    {
      "type": "Feature",
      "geometry": {
        "type": "Point",
        "coordinates": [
          -94.62035,
          39.086037
        ]
      },
      "properties": {
        "type": "feature",
        "index": 303,
        "address": "400 SHAWNEE AVENUE, KANSAS CITY, KS, 66105",
        "coordinates": "-94.62035,39.086037"
      }
    },
    {
      "type": "Feature",
      "geometry": {
        "type": "Point",
        "coordinates": [
          -94.54085,
          39.034477
        ]
      },
      "properties": {
        "type": "feature",
        "index": 304,
        "address": "5010 CLEVELAND AVE, KANSAS CITY, MO, 64130",
        "coordinates": "-94.54085,39.034477"
      }
    },
    {
      "type": "Feature",
      "geometry": {
        "type": "Point",
        "coordinates": [
          -94.80384,
          38.84559
        ]
      },
      "properties": {
        "type": "feature",
        "index": 305,
        "address": "15795 S MAHAFFIE STREET, OLATHE, KS, 66062",
        "coordinates": "-94.80384,38.84559"
      }
    },
    {
      "type": "Feature",
      "geometry": {
        "type": "Point",
        "coordinates": [
          -94.580246,
          39.145523
        ]
      },
      "properties": {
        "type": "feature",
        "index": 307,
        "address": "2301 BURLINGTON STREET, NORTH KANSAS CITY, MO, 64116",
        "coordinates": "-94.580246,39.145523"
      }
    },
    {
      "type": "Feature",
      "geometry": {
        "type": "Point",
        "coordinates": [
          -94.72949,
          38.929165
        ]
      },
      "properties": {
        "type": "feature",
        "index": 310,
        "address": "11040 OAKMONT STREET, OVERLAND PARK, KS, 66210",
        "coordinates": "-94.72949,38.929165"
      }
    },
    {
      "type": "Feature",
      "geometry": {
        "type": "Point",
        "coordinates": [
          -94.590385,
          39.0493
        ]
      },
      "properties": {
        "type": "feature",
        "index": 312,
        "address": "4320 WORNALL ROAD, KANSAS CITY, MO, 64111",
        "coordinates": "-94.590385,39.0493"
      }
    },
    {
      "type": "Feature",
      "geometry": {
        "type": "Point",
        "coordinates": [
          -94.71897,
          38.964176
        ]
      },
      "properties": {
        "type": "feature",
        "index": 314,
        "address": "9082 BOND ST, OVERLAND PARK, KS, 66214",
        "coordinates": "-94.71897,38.964176"
      }
    },
    {
      "type": "Feature",
      "geometry": {
        "type": "Point",
        "coordinates": [
          -94.580475,
          39.085373
        ]
      },
      "properties": {
        "type": "feature",
        "index": 315,
        "address": "2301 MCGEE STREET, KANSAS CITY, MO, 64108",
        "coordinates": "-94.580475,39.085373"
      }
    },
    {
      "type": "Feature",
      "geometry": {
        "type": "Point",
        "coordinates": [
          -94.55034,
          38.972668
        ]
      },
      "properties": {
        "type": "feature",
        "index": 317,
        "address": "3210 E 85TH STREET, KANSAS CITY, MO, 64132",
        "coordinates": "-94.55034,38.972668"
      }
    },
    {
      "type": "Feature",
      "geometry": {
        "type": "Point",
        "coordinates": [
          -94.71163,
          38.971107
        ]
      },
      "properties": {
        "type": "feature",
        "index": 318,
        "address": "10841 WEST 87TH STREET, OVERLAND PARK, KS, 66214",
        "coordinates": "-94.71163,38.971107"
      }
    },
    {
      "type": "Feature",
      "geometry": {
        "type": "Point",
        "coordinates": [
          -94.66397,
          38.937412
        ]
      },
      "properties": {
        "type": "feature",
        "index": 320,
        "address": "10550 BARKLEY STREET, OVERLAND PARK, KS, 66212",
        "coordinates": "-94.66397,38.937412"
      }
    },
    {
      "type": "Feature",
      "geometry": {
        "type": "Point",
        "coordinates": [
          -94.58089,
          39.10083
        ]
      },
      "properties": {
        "type": "feature",
        "index": 321,
        "address": "1110 GRAND BLVD, KANSAS CITY, MO, 64106",
        "coordinates": "-94.58089,39.10083"
      }
    },
    {
      "type": "Feature",
      "geometry": {
        "type": "Point",
        "coordinates": [
          -94.56668,
          39.096676
        ]
      },
      "properties": {
        "type": "feature",
        "index": 322,
        "address": "1316 E 14TH STREET, KANSAS CITY, MO, 64106",
        "coordinates": "-94.56668,39.096676"
      }
    },
    {
      "type": "Feature",
      "geometry": {
        "type": "Point",
        "coordinates": [
          -94.5825,
          39.03851
        ]
      },
      "properties": {
        "type": "feature",
        "index": 324,
        "address": "4900 OAK ST., KANSAS CITY, MO, 64112",
        "coordinates": "-94.5825,39.03851"
      }
    },
    {
      "type": "Feature",
      "geometry": {
        "type": "Point",
        "coordinates": [
          -94.592094,
          39.048595
        ]
      },
      "properties": {
        "type": "feature",
        "index": 325,
        "address": "4400 BROADWAY, KANSAS CITY, MO, 64111",
        "coordinates": "-94.592094,39.048595"
      }
    },
    {
      "type": "Feature",
      "geometry": {
        "type": "Point",
        "coordinates": [
          -94.4827,
          39.08264
        ]
      },
      "properties": {
        "type": "feature",
        "index": 326,
        "address": "2210 TELEVISION PL, KANSAS CITY, MO, 64126",
        "coordinates": "-94.4827,39.08264"
      }
    },
    {
      "type": "Feature",
      "geometry": {
        "type": "Point",
        "coordinates": [
          -94.64675,
          38.883022
        ]
      },
      "properties": {
        "type": "feature",
        "index": 327,
        "address": "4811 W 136TH STREET, LEAWOOD, KS, 66224",
        "coordinates": "-94.64675,38.883022"
      }
    },
    {
      "type": "Feature",
      "geometry": {
        "type": "Point",
        "coordinates": [
          -94.71226,
          39.023766
        ]
      },
      "properties": {
        "type": "feature",
        "index": 328,
        "address": "5802 BLUEJACKET AVE, SHAWNEE MISSION, KS, 66203",
        "coordinates": "-94.71226,39.023766"
      }
    },
    {
      "type": "Feature",
      "geometry": {
        "type": "Point",
        "coordinates": [
          -94.66781,
          38.890755
        ]
      },
      "properties": {
        "type": "feature",
        "index": 329,
        "address": "13060 METCALF AVE, OVERLAND PARK, KS, 66213",
        "coordinates": "-94.66781,38.890755"
      }
    },
    {
      "type": "Feature",
      "geometry": {
        "type": "Point",
        "coordinates": [
          -94.78582,
          38.896824
        ]
      },
      "properties": {
        "type": "feature",
        "index": 330,
        "address": "1000 N ROGERS ROAD, OLATHE, KS, 66062",
        "coordinates": "-94.78582,38.896824"
      }
    },
    {
      "type": "Feature",
      "geometry": {
        "type": "Point",
        "coordinates": [
          -94.565704,
          39.097885
        ]
      },
      "properties": {
        "type": "feature",
        "index": 332,
        "address": "1300 LYDIA AVE, KANSAS CITY, MO, 64106",
        "coordinates": "-94.565704,39.097885"
      }
    },
    {
      "type": "Feature",
      "geometry": {
        "type": "Point",
        "coordinates": [
          -94.598785,
          39.07792
        ]
      },
      "properties": {
        "type": "feature",
        "index": 333,
        "address": "2725 HOLLY STREET, KANSAS CITY, MO, 64108",
        "coordinates": "-94.598785,39.07792"
      }
    },
    {
      "type": "Feature",
      "geometry": {
        "type": "Point",
        "coordinates": [
          -94.59362,
          39.042328
        ]
      },
      "properties": {
        "type": "feature",
        "index": 334,
        "address": "605 WEST 47TH STREET, KANSAS CITY, MO, 64112",
        "coordinates": "-94.59362,39.042328"
      }
    },
    {
      "type": "Feature",
      "geometry": {
        "type": "Point",
        "coordinates": [
          -94.82092,
          38.83396
        ]
      },
      "properties": {
        "type": "feature",
        "index": 335,
        "address": "20570 WEST 162ND STREET, OLATHE, KS, 66062",
        "coordinates": "-94.82092,38.83396"
      }
    },
    {
      "type": "Feature",
      "geometry": {
        "type": "Point",
        "coordinates": [
          -94.51202,
          38.90994
        ]
      },
      "properties": {
        "type": "feature",
        "index": 338,
        "address": "11803 HOLIDAY DR, KANSAS CITY, MO, 64134",
        "coordinates": "-94.51202,38.90994"
      }
    },
    {
      "type": "Feature",
      "geometry": {
        "type": "Point",
        "coordinates": [
          -94.57861,
          38.980095
        ]
      },
      "properties": {
        "type": "feature",
        "index": 340,
        "address": "8101 CAMPBELL, KANSAS CITY, MO, 64131",
        "coordinates": "-94.57861,38.980095"
      }
    },
    {
      "type": "Feature",
      "geometry": {
        "type": "Point",
        "coordinates": [
          -94.68804,
          38.943916
        ]
      },
      "properties": {
        "type": "feature",
        "index": 341,
        "address": "8900 W 102ND TERRACE, OVERLAND PARK, KS, 66212",
        "coordinates": "-94.68804,38.943916"
      }
    },
    {
      "type": "Feature",
      "geometry": {
        "type": "Point",
        "coordinates": [
          -94.57443,
          39.280876
        ]
      },
      "properties": {
        "type": "feature",
        "index": 342,
        "address": "400 NE 103RD ST, KANSAS CITY, MO, 64155",
        "coordinates": "-94.57443,39.280876"
      }
    },
    {
      "type": "Feature",
      "geometry": {
        "type": "Point",
        "coordinates": [
          -94.63042,
          39.114574
        ]
      },
      "properties": {
        "type": "feature",
        "index": 343,
        "address": "827 ARMSTRONG AVE, KANSAS CITY, KS, 66101",
        "coordinates": "-94.63042,39.114574"
      }
    },
    {
      "type": "Feature",
      "geometry": {
        "type": "Point",
        "coordinates": [
          -94.667816,
          39.28443
        ]
      },
      "properties": {
        "type": "feature",
        "index": 344,
        "address": "10551 N CONGRESS AVE., KANSAS CITY, MO, 64153",
        "coordinates": "-94.667816,39.28443"
      }
    },
    {
      "type": "Feature",
      "geometry": {
        "type": "Point",
        "coordinates": [
          -94.5838,
          39.08692
        ]
      },
      "properties": {
        "type": "feature",
        "index": 347,
        "address": "2300 MAIN STREET, KANSAS CITY, MO, 64108",
        "coordinates": "-94.5838,39.08692"
      }
    },
    {
      "type": "Feature",
      "geometry": {
        "type": "Point",
        "coordinates": [
          -94.577415,
          39.131065
        ]
      },
      "properties": {
        "type": "feature",
        "index": 348,
        "address": "1225 SWIFT AVE., KANSAS CITY, MO, 64116",
        "coordinates": "-94.577415,39.131065"
      }
    },
    {
      "type": "Feature",
      "geometry": {
        "type": "Point",
        "coordinates": [
          -94.7075,
          38.977398
        ]
      },
      "properties": {
        "type": "feature",
        "index": 349,
        "address": "8381 MELROSE DR., OVERLAND PARK, KS, 66214",
        "coordinates": "-94.7075,38.977398"
      }
    },
    {
      "type": "Feature",
      "geometry": {
        "type": "Point",
        "coordinates": [
          -94.61214,
          39.076748
        ]
      },
      "properties": {
        "type": "feature",
        "index": 351,
        "address": "1155 ADAMS STREET, KANSAS CITY, KS, 66103",
        "coordinates": "-94.61214,39.076748"
      }
    },
    {
      "type": "Feature",
      "geometry": {
        "type": "Point",
        "coordinates": [
          -94.70258,
          38.990818
        ]
      },
      "properties": {
        "type": "feature",
        "index": 352,
        "address": "7616 WEDD STREET, OVERLAND PARK, KS, 66204",
        "coordinates": "-94.70258,38.990818"
      }
    },
    {
      "type": "Feature",
      "geometry": {
        "type": "Point",
        "coordinates": [
          -94.7398,
          39.066845
        ]
      },
      "properties": {
        "type": "feature",
        "index": 355,
        "address": "6945 INLAND DRIVE, KANSAS CITY, KS, 66106",
        "coordinates": "-94.7398,39.066845"
      }
    },
    {
      "type": "Feature",
      "geometry": {
        "type": "Point",
        "coordinates": [
          -94.78928,
          38.951767
        ]
      },
      "properties": {
        "type": "feature",
        "index": 357,
        "address": "17501 WEST 98TH, LENEXA, KS, 66219",
        "coordinates": "-94.78928,38.951767"
      }
    },
    {
      "type": "Feature",
      "geometry": {
        "type": "Point",
        "coordinates": [
          -94.81178,
          39.128613
        ]
      },
      "properties": {
        "type": "feature",
        "index": 359,
        "address": "10050 PARALLEL PKWY, KANSAS CITY, KS, 66109",
        "coordinates": "-94.81178,39.128613"
      }
    },
    {
      "type": "Feature",
      "geometry": {
        "type": "Point",
        "coordinates": [
          -94.68968,
          39.209156
        ]
      },
      "properties": {
        "type": "feature",
        "index": 363,
        "address": "6330 NW KELLY DR, PARKVILLE, MO, 64152",
        "coordinates": "-94.68968,39.209156"
      }
    },
    {
      "type": "Feature",
      "geometry": {
        "type": "Point",
        "coordinates": [
          -94.49838,
          39.15453
        ]
      },
      "properties": {
        "type": "feature",
        "index": 365,
        "address": "7200 NE BIRMINGHAM RD, KANSAS CITY, MO, 64161",
        "coordinates": "-94.49838,39.15453"
      }
    },
    {
      "type": "Feature",
      "geometry": {
        "type": "Point",
        "coordinates": [
          -94.79427,
          38.89365
        ]
      },
      "properties": {
        "type": "feature",
        "index": 369,
        "address": "882 N. JAN-MAR COURT, OLATHE, KS, 66061",
        "coordinates": "-94.79427,38.89365"
      }
    },
    {
      "type": "Feature",
      "geometry": {
        "type": "Point",
        "coordinates": [
          -94.478806,
          39.21998
        ]
      },
      "properties": {
        "type": "feature",
        "index": 371,
        "address": "8600 KAILL ROAD, LIBERTY, MO, 64068",
        "coordinates": "-94.478806,39.21998"
      }
    },
    {
      "type": "Feature",
      "geometry": {
        "type": "Point",
        "coordinates": [
          -94.615135,
          39.176014
        ]
      },
      "properties": {
        "type": "feature",
        "index": 374,
        "address": "2990 NW VIVION RD., RIVERSIDE, MO, 64150",
        "coordinates": "-94.615135,39.176014"
      }
    },
    {
      "type": "Feature",
      "geometry": {
        "type": "Point",
        "coordinates": [
          -94.61302,
          39.108547
        ]
      },
      "properties": {
        "type": "feature",
        "index": 375,
        "address": "347 NORTH JAMES ST, KANSAS CITY, KS, 66118",
        "coordinates": "-94.61302,39.108547"
      }
    },
    {
      "type": "Feature",
      "geometry": {
        "type": "Point",
        "coordinates": [
          -94.71667,
          38.96698
        ]
      },
      "properties": {
        "type": "feature",
        "index": 378,
        "address": "11300 W. 89TH STREET, OVERLAND PARK, KS, 66214",
        "coordinates": "-94.71667,38.96698"
      }
    },
    {
      "type": "Feature",
      "geometry": {
        "type": "Point",
        "coordinates": [
          -94.64656,
          39.023056
        ]
      },
      "properties": {
        "type": "feature",
        "index": 379,
        "address": "5331 JOHNSON DRIVE, MISSION, KS, 66205",
        "coordinates": "-94.64656,39.023056"
      }
    },
    {
      "type": "Feature",
      "geometry": {
        "type": "Point",
        "coordinates": [
          -94.740555,
          38.949326
        ]
      },
      "properties": {
        "type": "feature",
        "index": 381,
        "address": "13306 W 99TH ST., LENEXA, KS, 66215",
        "coordinates": "-94.740555,38.949326"
      }
    },
    {
      "type": "Feature",
      "geometry": {
        "type": "Point",
        "coordinates": [
          -94.75631,
          38.934704
        ]
      },
      "properties": {
        "type": "feature",
        "index": 382,
        "address": "14700 W. 107TH ST., LENEXA, KS, 66215",
        "coordinates": "-94.75631,38.934704"
      }
    },
    {
      "type": "Feature",
      "geometry": {
        "type": "Point",
        "coordinates": [
          -94.72258,
          39.014763
        ]
      },
      "properties": {
        "type": "feature",
        "index": 384,
        "address": "11501 W SHAWNEE MSN. PKWY, SHAWNEE, KS, 66203",
        "coordinates": "-94.72258,39.014763"
      }
    },
    {
      "type": "Feature",
      "geometry": {
        "type": "Point",
        "coordinates": [
          -94.606636,
          38.96408
        ]
      },
      "properties": {
        "type": "feature",
        "index": 386,
        "address": "1717 W 91ST PLACE, KANSAS CITY, MO, 64114",
        "coordinates": "-94.606636,38.96408"
      }
    },
    {
      "type": "Feature",
      "geometry": {
        "type": "Point",
        "coordinates": [
          -94.65139,
          39.02344
        ]
      },
      "properties": {
        "type": "feature",
        "index": 387,
        "address": "5828 REEDS ROAD, MISSION, KS, 66202",
        "coordinates": "-94.65139,39.02344"
      }
    },
    {
      "type": "Feature",
      "geometry": {
        "type": "Point",
        "coordinates": [
          -94.62902,
          39.11555
        ]
      },
      "properties": {
        "type": "feature",
        "index": 389,
        "address": "756 MINNESOTA AVE., KANSAS CITY, KS, 66101",
        "coordinates": "-94.62902,39.11555"
      }
    },
    {
      "type": "Feature",
      "geometry": {
        "type": "Point",
        "coordinates": [
          -94.74932,
          39.116623
        ]
      },
      "properties": {
        "type": "feature",
        "index": 391,
        "address": "7354 STATE AVE., KANSAS CITY, KS, 66112",
        "coordinates": "-94.74932,39.116623"
      }
    },
    {
      "type": "Feature",
      "geometry": {
        "type": "Point",
        "coordinates": [
          -94.681656,
          39.05235
        ]
      },
      "properties": {
        "type": "feature",
        "index": 392,
        "address": "4431 SHAWNEE DR., KANSAS CITY, KS, 66106",
        "coordinates": "-94.681656,39.05235"
      }
    },
    {
      "type": "Feature",
      "geometry": {
        "type": "Point",
        "coordinates": [
          -94.73104,
          39.01479
        ]
      },
      "properties": {
        "type": "feature",
        "index": 394,
        "address": "12500 SHAWNEE MISSION PKW, SHAWNEE, KS, 66216",
        "coordinates": "-94.73104,39.01479"
      }
    },
    {
      "type": "Feature",
      "geometry": {
        "type": "Point",
        "coordinates": [
          -94.65703,
          39.115437
        ]
      },
      "properties": {
        "type": "feature",
        "index": 396,
        "address": "2501 MINNESOTA, KANSAS CITY, KS, 66102",
        "coordinates": "-94.65703,39.115437"
      }
    },
    {
      "type": "Feature",
      "geometry": {
        "type": "Point",
        "coordinates": [
          -94.361084,
          38.970016
        ]
      },
      "properties": {
        "type": "feature",
        "index": 398,
        "address": "3200 NE RALPH POWELL RD., LEES SUMMIT, MO, 64064",
        "coordinates": "-94.361084,38.970016"
      }
    },
    {
      "type": "Feature",
      "geometry": {
        "type": "Point",
        "coordinates": [
          -94.69342,
          38.99515
        ]
      },
      "properties": {
        "type": "feature",
        "index": 401,
        "address": "9119 W. 74TH ST., OVERLAND PARK, KS, 66204",
        "coordinates": "-94.69342,38.99515"
      }
    },
    {
      "type": "Feature",
      "geometry": {
        "type": "Point",
        "coordinates": [
          -94.868416,
          38.576653
        ]
      },
      "properties": {
        "type": "feature",
        "index": 404,
        "address": "702 BAPTISTE DR., PAOLA, KS, 66071",
        "coordinates": "-94.868416,38.576653"
      }
    },
    {
      "type": "Feature",
      "geometry": {
        "type": "Point",
        "coordinates": [
          -94.60277,
          38.93993
        ]
      },
      "properties": {
        "type": "feature",
        "index": 406,
        "address": "10401 MADISON, KANSAS CITY, MO, 64114",
        "coordinates": "-94.60277,38.93993"
      }
    },
    {
      "type": "Feature",
      "geometry": {
        "type": "Point",
        "coordinates": [
          -94.583206,
          39.09981
        ]
      },
      "properties": {
        "type": "feature",
        "index": 407,
        "address": "1200 MAIN ST., KANSAS CITY, MO, 64105",
        "coordinates": "-94.583206,39.09981"
      }
    },
    {
      "type": "Feature",
      "geometry": {
        "type": "Point",
        "coordinates": [
          -94.667946,
          38.9275
        ]
      },
      "properties": {
        "type": "feature",
        "index": 408,
        "address": "7101 COLLEGE BLVD., OVERLAND PARK, KS, 66210",
        "coordinates": "-94.667946,38.9275"
      }
    },
    {
      "type": "Feature",
      "geometry": {
        "type": "Point",
        "coordinates": [
          -94.53151,
          39.135906
        ]
      },
      "properties": {
        "type": "feature",
        "index": 409,
        "address": "1600 N JACKSON AVE, KANSAS CITY, MO, 64120",
        "coordinates": "-94.53151,39.135906"
      }
    },
    {
      "type": "Feature",
      "geometry": {
        "type": "Point",
        "coordinates": [
          -94.61829,
          39.084457
        ]
      },
      "properties": {
        "type": "feature",
        "index": 411,
        "address": "120 OSAGE AVE, KANSAS CITY, KS, 66105",
        "coordinates": "-94.61829,39.084457"
      }
    },
    {
      "type": "Feature",
      "geometry": {
        "type": "Point",
        "coordinates": [
          -94.8993,
          38.825996
        ]
      },
      "properties": {
        "type": "feature",
        "index": 413,
        "address": "300 NEW CENTURY PKWY., NEW CENTURY, KS, 66031",
        "coordinates": "-94.8993,38.825996"
      }
    },
    {
      "type": "Feature",
      "geometry": {
        "type": "Point",
        "coordinates": [
          -94.83443,
          38.86605
        ]
      },
      "properties": {
        "type": "feature",
        "index": 415,
        "address": "1203 SOUTH PARKER, OLATHE, KS, 66061",
        "coordinates": "-94.83443,38.86605"
      }
    },
    {
      "type": "Feature",
      "geometry": {
        "type": "Point",
        "coordinates": [
          -94.73667,
          38.956512
        ]
      },
      "properties": {
        "type": "feature",
        "index": 416,
        "address": "13001 W. 95TH ST., LENEXA, KS, 66215",
        "coordinates": "-94.73667,38.956512"
      }
    },
    {
      "type": "Feature",
      "geometry": {
        "type": "Point",
        "coordinates": [
          -94.774994,
          39.11635
        ]
      },
      "properties": {
        "type": "feature",
        "index": 419,
        "address": "8425 STATE AVE, KANSAS CITY, KS, 66112",
        "coordinates": "-94.774994,39.11635"
      }
    },
    {
      "type": "Feature",
      "geometry": {
        "type": "Point",
        "coordinates": [
          -94.8827,
          39.05607
        ]
      },
      "properties": {
        "type": "feature",
        "index": 420,
        "address": "301 OAK ST, BONNER SPRINGS, KS, 66012",
        "coordinates": "-94.8827,39.05607"
      }
    },
    {
      "type": "Feature",
      "geometry": {
        "type": "Point",
        "coordinates": [
          -94.73667,
          38.956512
        ]
      },
      "properties": {
        "type": "feature",
        "index": 422,
        "address": "13001 W 95TH ST, LENEXA, KS, 66215",
        "coordinates": "-94.73667,38.956512"
      }
    },
    {
      "type": "Feature",
      "geometry": {
        "type": "Point",
        "coordinates": [
          -94.74762,
          38.883648
        ]
      },
      "properties": {
        "type": "feature",
        "index": 423,
        "address": "14280 W 135TH ST, OLATHE, KS, 66062",
        "coordinates": "-94.74762,38.883648"
      }
    },
    {
      "type": "Feature",
      "geometry": {
        "type": "Point",
        "coordinates": [
          -94.73667,
          38.956512
        ]
      },
      "properties": {
        "type": "feature",
        "index": 424,
        "address": "13001 W 95TH ST., LENEXA, KS, 66215",
        "coordinates": "-94.73667,38.956512"
      }
    },
    {
      "type": "Feature",
      "geometry": {
        "type": "Point",
        "coordinates": [
          -94.513885,
          39.13677
        ]
      },
      "properties": {
        "type": "feature",
        "index": 425,
        "address": "1634 N. TOPPING AVE, KANSAS CITY, MO, 64120",
        "coordinates": "-94.513885,39.13677"
      }
    },
    {
      "type": "Feature",
      "geometry": {
        "type": "Point",
        "coordinates": [
          -94.762474,
          38.928936
        ]
      },
      "properties": {
        "type": "feature",
        "index": 426,
        "address": "15301 WEST 110TH ST, LENEXA, KS, 66219",
        "coordinates": "-94.762474,38.928936"
      }
    },
    {
      "type": "Feature",
      "geometry": {
        "type": "Point",
        "coordinates": [
          -94.488655,
          39.16138
        ]
      },
      "properties": {
        "type": "feature",
        "index": 428,
        "address": "3631 N GREAT MIDWEST DR, KANSAS CITY, MO, 64161",
        "coordinates": "-94.488655,39.16138"
      }
    },
    {
      "type": "Feature",
      "geometry": {
        "type": "Point",
        "coordinates": [
          -94.75946,
          38.936687
        ]
      },
      "properties": {
        "type": "feature",
        "index": 430,
        "address": "15030 W. 106TH STREET, LENEXA, KS, 66215",
        "coordinates": "-94.75946,38.936687"
      }
    },
    {
      "type": "Feature",
      "geometry": {
        "type": "Point",
        "coordinates": [
          -94.58316,
          39.10069
        ]
      },
      "properties": {
        "type": "feature",
        "index": 431,
        "address": "1111 MAIN ST., KANSAS CITY, MO, 64105",
        "coordinates": "-94.58316,39.10069"
      }
    },
    {
      "type": "Feature",
      "geometry": {
        "type": "Point",
        "coordinates": [
          -94.879135,
          39.08707
        ]
      },
      "properties": {
        "type": "feature",
        "index": 433,
        "address": "12801 KANSAS AVENUE, BONNER SPRINGS, KS, 66012",
        "coordinates": "-94.879135,39.08707"
      }
    },
    {
      "type": "Feature",
      "geometry": {
        "type": "Point",
        "coordinates": [
          -94.78611,
          39.128582
        ]
      },
      "properties": {
        "type": "feature",
        "index": 434,
        "address": "8919 PARALLEL PARKWAY, KANSAS CITY, KS, 66112",
        "coordinates": "-94.78611,39.128582"
      }
    },
    {
      "type": "Feature",
      "geometry": {
        "type": "Point",
        "coordinates": [
          -94.70796,
          38.987133
        ]
      },
      "properties": {
        "type": "feature",
        "index": 435,
        "address": "10504 W. 79TH ST., SHAWNEE, KS, 66214",
        "coordinates": "-94.70796,38.987133"
      }
    },
    {
      "type": "Feature",
      "geometry": {
        "type": "Point",
        "coordinates": [
          -94.637955,
          38.91946
        ]
      },
      "properties": {
        "type": "feature",
        "index": 436,
        "address": "11551 GRANADA LANE, LEAWOOD, KS, 66211",
        "coordinates": "-94.637955,38.91946"
      }
    },
    {
      "type": "Feature",
      "geometry": {
        "type": "Point",
        "coordinates": [
          -94.77021,
          38.953983
        ]
      },
      "properties": {
        "type": "feature",
        "index": 438,
        "address": "9652 LOIRET BLVD, LENEXA, KS, 66219",
        "coordinates": "-94.77021,38.953983"
      }
    },
    {
      "type": "Feature",
      "geometry": {
        "type": "Point",
        "coordinates": [
          -94.71149,
          38.98086
        ]
      },
      "properties": {
        "type": "feature",
        "index": 439,
        "address": "8140 MARSHALL DRIVE, LENEXA, KS, 66214",
        "coordinates": "-94.71149,38.98086"
      }
    },
    {
      "type": "Feature",
      "geometry": {
        "type": "Point",
        "coordinates": [
          -94.76082,
          38.933117
        ]
      },
      "properties": {
        "type": "feature",
        "index": 440,
        "address": "10800 LACKMAN ROAD, LENEXA, KS, 66219",
        "coordinates": "-94.76082,38.933117"
      }
    },
    {
      "type": "Feature",
      "geometry": {
        "type": "Point",
        "coordinates": [
          -94.75293,
          38.928722
        ]
      },